$GPGGA,204805.553,4012.562,N,10511.266,W,1,12,1.0,0.0,M,0.0,M,,*74
$GPGSA,A,3,01,02,03,04,05,06,07,08,09,10,11,12,1.0,1.0,1.0*30
$GPRMC,204805.553,A,4012.562,N,10511.266,W,000.2,153.4,220925,000.0,W*6F
$GPGGA,205215.553,4012.552,N,10511.260,W,1,12,1.0,0.0,M,0.0,M,,*7B
$GPGSA,A,3,01,02,03,04,05,06,07,08,09,10,11,12,1.0,1.0,1.0*30
$GPRMC,205215.553,A,4012.552,N,10511.260,W,000.1,158.2,220925,000.0,W*6E
$GPGGA,205625.553,4012.547,N,10511.257,W,1,12,1.0,0.0,M,0.0,M,,*7C
$GPGSA,A,3,01,02,03,04,05,06,07,08,09,10,11,12,1.0,1.0,1.0*30
$GPRMC,205625.553,A,4012.547,N,10511.257,W,000.1,200.6,220925,000.0,W*63
$GPGGA,210035.553,4012.540,N,10511.261,W,1,12,1.0,0.0,M,0.0,M,,*7D
$GPGSA,A,3,01,02,03,04,05,06,07,08,09,10,11,12,1.0,1.0,1.0*30
$GPRMC,210035.553,A,4012.540,N,10511.261,W,000.1,202.7,220925,000.0,W*61
$GPGGA,210445.553,4012.534,N,10511.264,W,1,12,1.0,0.0,M,0.0,M,,*78
$GPGSA,A,3,01,02,03,04,05,06,07,08,09,10,11,12,1.0,1.0,1.0*30
$GPRMC,210445.553,A,4012.534,N,10511.264,W,000.2,158.6,220925,000.0,W*6A
$GPGGA,210855.553,4012.523,N,10511.258,W,1,12,1.0,0.0,M,0.0,M,,*7C
$GPGSA,A,3,01,02,03,04,05,06,07,08,09,10,11,12,1.0,1.0,1.0*30
$GPRMC,210855.553,A,4012.523,N,10511.258,W,000.4,168.3,220925,000.0,W*6E
$GPGGA,211305.553,4012.495,N,10511.251,W,1,12,1.0,0.0,M,0.0,M,,*76
$GPGSA,A,3,01,02,03,04,05,06,07,08,09,10,11,12,1.0,1.0,1.0*30
$GPRMC,211305.553,A,4012.495,N,10511.251,W,000.2,205.7,220925,000.0,W*6E
$GPGGA,211715.553,4012.481,N,10511.259,W,1,12,1.0,0.0,M,0.0,M,,*7E
$GPGSA,A,3,01,02,03,04,05,06,07,08,09,10,11,12,1.0,1.0,1.0*30
$GPRMC,211715.553,A,4012.481,N,10511.259,W,000.1,212.7,220925,000.0,W*63
$GPGGA,212125.553,4012.474,N,10511.265,W,1,12,1.0,0.0,M,0.0,M,,*7D
$GPGSA,A,3,01,02,03,04,05,06,07,08,09,10,11,12,1.0,1.0,1.0*30
$GPRMC,212125.553,A,4012.474,N,10511.265,W,000.1,215.5,220925,000.0,W*65
$GPGGA,212535.553,4012.468,N,10511.271,W,1,12,1.0,0.0,M,0.0,M,,*70
$GPGSA,A,3,01,02,03,04,05,06,07,08,09,10,11,12,1.0,1.0,1.0*30
$GPRMC,212535.553,A,4012.468,N,10511.271,W,000.2,190.3,220925,000.0,W*63
$GPGGA,212945.553,4012.457,N,10511.274,W,1,12,1.0,0.0,M,0.0,M,,*72
$GPGSA,A,3,01,02,03,04,05,06,07,08,09,10,11,12,1.0,1.0,1.0*30
$GPRMC,212945.553,A,4012.457,N,10511.274,W,000.2,208.3,220925,000.0,W*63
$GPGGA,213355.553,4012.444,N,10511.283,W,1,12,1.0,0.0,M,0.0,M,,*72
$GPGSA,A,3,01,02,03,04,05,06,07,08,09,10,11,12,1.0,1.0,1.0*30
$GPRMC,213355.553,A,4012.444,N,10511.283,W,000.2,166.6,220925,000.0,W*6D
$GPGGA,213805.553,4012.434,N,10511.280,W,1,12,1.0,0.0,M,0.0,M,,*78
$GPGSA,A,3,01,02,03,04,05,06,07,08,09,10,11,12,1.0,1.0,1.0*30
$GPRMC,213805.553,A,4012.434,N,10511.280,W,000.1,212.9,220925,000.0,W*6B
$GPGGA,214215.553,4012.425,N,10511.287,W,1,12,1.0,0.0,M,0.0,M,,*73
$GPGSA,A,3,01,02,03,04,05,06,07,08,09,10,11,12,1.0,1.0,1.0*30
$GPRMC,214215.553,A,4012.425,N,10511.287,W,000.1,217.9,220925,000.0,W*65
$GPGGA,214625.553,4012.421,N,10511.291,W,1,12,1.0,0.0,M,0.0,M,,*77
$GPGSA,A,3,01,02,03,04,05,06,07,08,09,10,11,12,1.0,1.0,1.0*30
$GPRMC,214625.553,A,4012.421,N,10511.291,W,000.1,214.7,220925,000.0,W*6C
$GPGGA,215035.553,4012.414,N,10511.297,W,1,12,1.0,0.0,M,0.0,M,,*71
$GPGSA,A,3,01,02,03,04,05,06,07,08,09,10,11,12,1.0,1.0,1.0*30
$GPRMC,215035.553,A,4012.414,N,10511.297,W,000.1,230.2,220925,000.0,W*69
$GPGGA,215445.553,4012.409,N,10511.305,W,1,12,1.0,0.0,M,0.0,M,,*74
$GPGSA,A,3,01,02,03,04,05,06,07,08,09,10,11,12,1.0,1.0,1.0*30
$GPRMC,215445.553,A,4012.409,N,10511.305,W,000.1,157.6,220925,000.0,W*6A
$GPGGA,215855.553,4012.401,N,10511.300,W,1,12,1.0,0.0,M,0.0,M,,*74
$GPGSA,A,3,01,02,03,04,05,06,07,08,09,10,11,12,1.0,1.0,1.0*30
$GPRMC,215855.553,A,4012.401,N,10511.300,W,000.1,175.6,220925,000.0,W*6A
$GPGGA,220305.553,4012.395,N,10511.300,W,1,12,1.0,0.0,M,0.0,M,,*76
$GPGSA,A,3,01,02,03,04,05,06,07,08,09,10,11,12,1.0,1.0,1.0*30
$GPRMC,220305.553,A,4012.395,N,10511.300,W,000.1,204.8,220925,000.0,W*63
$GPGGA,220715.553,4012.388,N,10511.303,W,1,12,1.0,0.0,M,0.0,M,,*7C
$GPGSA,A,3,01,02,03,04,05,06,07,08,09,10,11,12,1.0,1.0,1.0*30
$GPRMC,220715.553,A,4012.388,N,10511.303,W,000.1,182.7,220925,000.0,W*6B
$GPGGA,221125.553,4012.378,N,10511.304,W,1,12,1.0,0.0,M,0.0,M,,*70
$GPGSA,A,3,01,02,03,04,05,06,07,08,09,10,11,12,1.0,1.0,1.0*30
$GPRMC,221125.553,A,4012.378,N,10511.304,W,000.1,135.0,220925,000.0,W*6C
$GPGGA,221535.553,4012.374,N,10511.299,W,1,12,1.0,0.0,M,0.0,M,,*7C
$GPGSA,A,3,01,02,03,04,05,06,07,08,09,10,11,12,1.0,1.0,1.0*30
$GPRMC,221535.553,A,4012.374,N,10511.299,W,000.1,132.5,220925,000.0,W*62
$GPGGA,221945.553,4012.369,N,10511.291,W,1,12,1.0,0.0,M,0.0,M,,*73
$GPGSA,A,3,01,02,03,04,05,06,07,08,09,10,11,12,1.0,1.0,1.0*30
$GPRMC,221945.553,A,4012.369,N,10511.291,W,000.1,153.4,220925,000.0,W*6B
$GPGGA,222355.553,4012.363,N,10511.287,W,1,12,1.0,0.0,M,0.0,M,,*76
$GPGSA,A,3,01,02,03,04,05,06,07,08,09,10,11,12,1.0,1.0,1.0*30
$GPRMC,222355.553,A,4012.363,N,10511.287,W,000.2,128.7,220925,000.0,W*62
$GPGGA,222805.553,4012.355,N,10511.274,W,1,12,1.0,0.0,M,0.0,M,,*71
$GPGSA,A,3,01,02,03,04,05,06,07,08,09,10,11,12,1.0,1.0,1.0*30
$GPRMC,222805.553,A,4012.355,N,10511.274,W,000.2,139.6,220925,000.0,W*64
$GPGGA,223215.553,4012.345,N,10511.263,W,1,12,1.0,0.0,M,0.0,M,,*7C
$GPGSA,A,3,01,02,03,04,05,06,07,08,09,10,11,12,1.0,1.0,1.0*30
$GPRMC,223215.553,A,4012.345,N,10511.263,W,000.2,148.2,220925,000.0,W*6B
$GPGGA,223625.553,4012.335,N,10511.255,W,1,12,1.0,0.0,M,0.0,M,,*79
$GPGSA,A,3,01,02,03,04,05,06,07,08,09,10,11,12,1.0,1.0,1.0*30
$GPRMC,223625.553,A,4012.335,N,10511.255,W,000.2,159.4,220925,000.0,W*68
$GPGGA,224035.553,4012.323,N,10511.249,W,1,12,1.0,0.0,M,0.0,M,,*73
$GPGSA,A,3,01,02,03,04,05,06,07,08,09,10,11,12,1.0,1.0,1.0*30
$GPRMC,224035.553,A,4012.323,N,10511.249,W,000.1,174.0,220925,000.0,W*6A
$GPGGA,224445.553,4012.314,N,10511.248,W,1,12,1.0,0.0,M,0.0,M,,*75
$GPGSA,A,3,01,02,03,04,05,06,07,08,09,10,11,12,1.0,1.0,1.0*30
$GPRMC,224445.553,A,4012.314,N,10511.248,W,000.4,177.7,220925,000.0,W*6D
$GPGGA,224855.553,4012.289,N,10511.247,W,1,12,1.0,0.0,M,0.0,M,,*72
$GPGSA,A,3,01,02,03,04,05,06,07,08,09,10,11,12,1.0,1.0,1.0*30
$GPRMC,224855.553,A,4012.289,N,10511.247,W,000.2,177.7,220925,000.0,W*6C
$GPGGA,225305.553,4012.277,N,10511.246,W,1,12,1.0,0.0,M,0.0,M,,*7D
$GPGSA,A,3,01,02,03,04,05,06,07,08,09,10,11,12,1.0,1.0,1.0*30
$GPRMC,225305.553,A,4012.277,N,10511.246,W,000.2,180.0,220925,000.0,W*6C
$GPGGA,225715.553,4012.264,N,10511.246,W,1,12,1.0,0.0,M,0.0,M,,*7A
$GPGSA,A,3,01,02,03,04,05,06,07,08,09,10,11,12,1.0,1.0,1.0*30
$GPRMC,225715.553,A,4012.264,N,10511.246,W,000.1,131.6,220925,000.0,W*64
$GPGGA,230125.553,4012.260,N,10511.240,W,1,12,1.0,0.0,M,0.0,M,,*79
$GPGSA,A,3,01,02,03,04,05,06,07,08,09,10,11,12,1.0,1.0,1.0*30
$GPRMC,230125.553,A,4012.260,N,10511.240,W,000.1,149.0,220925,000.0,W*6E
$GPGGA,230535.553,4012.253,N,10511.235,W,1,12,1.0,0.0,M,0.0,M,,*7E
$GPGSA,A,3,01,02,03,04,05,06,07,08,09,10,11,12,1.0,1.0,1.0*30
$GPRMC,230535.553,A,4012.253,N,10511.235,W,000.2,166.4,220925,000.0,W*63
$GPGGA,230945.553,4012.238,N,10511.230,W,1,12,1.0,0.0,M,0.0,M,,*7D
$GPGSA,A,3,01,02,03,04,05,06,07,08,09,10,11,12,1.0,1.0,1.0*30
$GPRMC,230945.553,A,4012.238,N,10511.230,W,000.2,188.9,220925,000.0,W*6D
$GPGGA,231355.553,4012.223,N,10511.233,W,1,12,1.0,0.0,M,0.0,M,,*7E
$GPGSA,A,3,01,02,03,04,05,06,07,08,09,10,11,12,1.0,1.0,1.0*30
$GPRMC,231355.553,A,4012.223,N,10511.233,W,000.1,201.8,220925,000.0,W*6E
$GPGGA,231805.553,4012.215,N,10511.237,W,1,12,1.0,0.0,M,0.0,M,,*71
$GPGSA,A,3,01,02,03,04,05,06,07,08,09,10,11,12,1.0,1.0,1.0*30
$GPRMC,231805.553,A,4012.215,N,10511.237,W,000.2,156.8,220925,000.0,W*63
$GPGGA,232215.553,4012.204,N,10511.232,W,1,12,1.0,0.0,M,0.0,M,,*7C
$GPGSA,A,3,01,02,03,04,05,06,07,08,09,10,11,12,1.0,1.0,1.0*30
$GPRMC,232215.553,A,4012.204,N,10511.232,W,000.3,180.0,220925,000.0,W*6C
$GPGGA,232625.553,4012.181,N,10511.232,W,1,12,1.0,0.0,M,0.0,M,,*75
$GPGSA,A,3,01,02,03,04,05,06,07,08,09,10,11,12,1.0,1.0,1.0*30
$GPRMC,232625.553,A,4012.181,N,10511.232,W,000.1,084.6,220925,000.0,W*64
$GPGGA,233035.553,4012.182,N,10511.218,W,1,12,1.0,0.0,M,0.0,M,,*78
$GPGSA,A,3,01,02,03,04,05,06,07,08,09,10,11,12,1.0,1.0,1.0*30
$GPRMC,233035.553,A,4012.182,N,10511.218,W,000.2,087.5,220925,000.0,W*6A
$GPGGA,233445.553,4012.183,N,10511.203,W,1,12,1.0,0.0,M,0.0,M,,*70
$GPGSA,A,3,01,02,03,04,05,06,07,08,09,10,11,12,1.0,1.0,1.0*30
$GPRMC,233445.553,A,4012.183,N,10511.203,W,000.2,137.9,220925,000.0,W*64
$GPGGA,233855.553,4012.173,N,10511.191,W,1,12,1.0,0.0,M,0.0,M,,*7A
$GPGSA,A,3,01,02,03,04,05,06,07,08,09,10,11,12,1.0,1.0,1.0*30
$GPRMC,233855.553,A,4012.173,N,10511.191,W,000.2,159.1,220925,000.0,W*6E
$GPGGA,234305.553,4012.162,N,10511.186,W,1,12,1.0,0.0,M,0.0,M,,*75
$GPGSA,A,3,01,02,03,04,05,06,07,08,09,10,11,12,1.0,1.0,1.0*30
$GPRMC,234305.553,A,4012.162,N,10511.186,W,000.1,053.1,220925,000.0,W*69
$GPGGA,234715.553,4012.168,N,10511.176,W,1,12,1.0,0.0,M,0.0,M,,*75
$GPGSA,A,3,01,02,03,04,05,06,07,08,09,10,11,12,1.0,1.0,1.0*30
$GPRMC,234715.553,A,4012.168,N,10511.176,W,000.3,062.3,220925,000.0,W*6B
$GPGGA,235125.553,4012.178,N,10511.150,W,1,12,1.0,0.0,M,0.0,M,,*74
$GPGSA,A,3,01,02,03,04,05,06,07,08,09,10,11,12,1.0,1.0,1.0*30
$GPRMC,235125.553,A,4012.178,N,10511.150,W,000.3,082.3,220925,000.0,W*64
$GPGGA,235535.553,4012.181,N,10511.126,W,1,12,1.0,0.0,M,0.0,M,,*76
$GPGSA,A,3,01,02,03,04,05,06,07,08,09,10,11,12,1.0,1.0,1.0*30
$GPRMC,235535.553,A,4012.181,N,10511.126,W,000.2,099.2,220925,000.0,W*6C
$GPGGA,235945.553,4012.178,N,10511.106,W,1,12,1.0,0.0,M,0.0,M,,*79
$GPGSA,A,3,01,02,03,04,05,06,07,08,09,10,11,12,1.0,1.0,1.0*30
$GPRMC,235945.553,A,4012.178,N,10511.106,W,000.2,107.2,220925,000.0,W*65
$GPGGA,000355.553,4012.174,N,10511.087,W,1,12,1.0,0.0,M,0.0,M,,*72
$GPGSA,A,3,01,02,03,04,05,06,07,08,09,10,11,12,1.0,1.0,1.0*30
$GPRMC,000355.553,A,4012.174,N,10511.087,W,000.2,083.1,230925,000.0,W*61
$GPGGA,000805.553,4012.176,N,10511.066,W,1,12,1.0,0.0,M,0.0,M,,*71
$GPGSA,A,3,01,02,03,04,05,06,07,08,09,10,11,12,1.0,1.0,1.0*30
$GPRMC,000805.553,A,4012.176,N,10511.066,W,000.1,093.0,230925,000.0,W*61
$GPGGA,001215.553,4012.175,N,10511.054,W,1,12,1.0,0.0,M,0.0,M,,*79
$GPGSA,A,3,01,02,03,04,05,06,07,08,09,10,11,12,1.0,1.0,1.0*30
$GPRMC,001215.553,A,4012.175,N,10511.054,W,000.2,087.6,230925,000.0,W*69
$GPGGA,001625.553,4012.176,N,10511.038,W,1,12,1.0,0.0,M,0.0,M,,*77
$GPGSA,A,3,01,02,03,04,05,06,07,08,09,10,11,12,1.0,1.0,1.0*30
$GPRMC,001625.553,A,4012.176,N,10511.038,W,000.2,114.4,230925,000.0,W*6E
$GPGGA,002035.553,4012.171,N,10511.024,W,1,12,1.0,0.0,M,0.0,M,,*79
$GPGSA,A,3,01,02,03,04,05,06,07,08,09,10,11,12,1.0,1.0,1.0*30
$GPRMC,002035.553,A,4012.171,N,10511.024,W,000.3,093.0,230925,000.0,W*6B
$GPGGA,002445.553,4012.170,N,10511.000,W,1,12,1.0,0.0,M,0.0,M,,*7D
$GPGSA,A,3,01,02,03,04,05,06,07,08,09,10,11,12,1.0,1.0,1.0*30
$GPRMC,002445.553,A,4012.170,N,10511.000,W,000.3,122.6,230925,000.0,W*62
$GPGGA,002855.553,4012.159,N,10510.977,W,1,12,1.0,0.0,M,0.0,M,,*73
$GPGSA,A,3,01,02,03,04,05,06,07,08,09,10,11,12,1.0,1.0,1.0*30
$GPRMC,002855.553,A,4012.159,N,10510.977,W,000.1,016.4,230925,000.0,W*6A
$GPGGA,003305.553,4012.167,N,10510.973,W,1,12,1.0,0.0,M,0.0,M,,*75
$GPGSA,A,3,01,02,03,04,05,06,07,08,09,10,11,12,1.0,1.0,1.0*30
$GPRMC,003305.553,A,4012.167,N,10510.973,W,000.2,354.1,230925,000.0,W*6F
$GPGGA,003715.553,4012.181,N,10510.975,W,1,12,1.0,0.0,M,0.0,M,,*7E
$GPGSA,A,3,01,02,03,04,05,06,07,08,09,10,11,12,1.0,1.0,1.0*30
$GPRMC,003715.553,A,4012.181,N,10510.975,W,000.1,005.7,230925,000.0,W*66
$GPGGA,004125.553,4012.191,N,10510.974,W,1,12,1.0,0.0,M,0.0,M,,*7C
$GPGSA,A,3,01,02,03,04,05,06,07,08,09,10,11,12,1.0,1.0,1.0*30
$GPRMC,004125.553,A,4012.191,N,10510.974,W,000.4,000.0,230925,000.0,W*63
$GPGGA,004535.553,4012.217,N,10510.974,W,1,12,1.0,0.0,M,0.0,M,,*74
$GPGSA,A,3,01,02,03,04,05,06,07,08,09,10,11,12,1.0,1.0,1.0*30
$GPRMC,004535.553,A,4012.217,N,10510.974,W,000.2,022.1,230925,000.0,W*6C
$GPGGA,004945.553,4012.233,N,10510.966,W,1,12,1.0,0.0,M,0.0,M,,*7A
$GPGSA,A,3,01,02,03,04,05,06,07,08,09,10,11,12,1.0,1.0,1.0*30
$GPRMC,004945.553,A,4012.233,N,10510.966,W,000.3,031.5,230925,000.0,W*65
$GPGGA,005355.553,4012.248,N,10510.953,W,1,12,1.0,0.0,M,0.0,M,,*7A
$GPGSA,A,3,01,02,03,04,05,06,07,08,09,10,11,12,1.0,1.0,1.0*30
$GPRMC,005355.553,A,4012.248,N,10510.953,W,000.2,039.5,230925,000.0,W*6C
$GPGGA,005805.553,4012.257,N,10510.944,W,1,12,1.0,0.0,M,0.0,M,,*7C
$GPGSA,A,3,01,02,03,04,05,06,07,08,09,10,11,12,1.0,1.0,1.0*30
$GPRMC,005805.553,A,4012.257,N,10510.944,W,000.2,030.1,230925,000.0,W*67
$GPGGA,010215.553,4012.266,N,10510.937,W,1,12,1.0,0.0,M,0.0,M,,*75
$GPGSA,A,3,01,02,03,04,05,06,07,08,09,10,11,12,1.0,1.0,1.0*30
$GPRMC,010215.553,A,4012.266,N,10510.937,W,000.1,010.3,230925,000.0,W*6D
$GPGGA,010625.553,4012.271,N,10510.936,W,1,12,1.0,0.0,M,0.0,M,,*75
$GPGSA,A,3,01,02,03,04,05,06,07,08,09,10,11,12,1.0,1.0,1.0*30
$GPRMC,010625.553,A,4012.271,N,10510.936,W,000.1,025.2,230925,000.0,W*6A
$GPGGA,011035.553,4012.280,N,10510.931,W,1,12,1.0,0.0,M,0.0,M,,*7A
$GPGSA,A,3,01,02,03,04,05,06,07,08,09,10,11,12,1.0,1.0,1.0*30
$GPRMC,011035.553,A,4012.280,N,10510.931,W,000.1,053.1,230925,000.0,W*67
$GPGGA,011445.553,4012.284,N,10510.923,W,1,12,1.0,0.0,M,0.0,M,,*7E
$GPGSA,A,3,01,02,03,04,05,06,07,08,09,10,11,12,1.0,1.0,1.0*30
$GPRMC,011445.553,A,4012.284,N,10510.923,W,000.2,011.7,230925,000.0,W*60
$GPGGA,011855.553,4012.298,N,10510.919,W,1,12,1.0,0.0,M,0.0,M,,*77
$GPGSA,A,3,01,02,03,04,05,06,07,08,09,10,11,12,1.0,1.0,1.0*30
$GPRMC,011855.553,A,4012.298,N,10510.919,W,000.2,357.6,230925,000.0,W*69
$GPGGA,012305.553,4012.310,N,10510.920,W,1,12,1.0,0.0,M,0.0,M,,*71
$GPGSA,A,3,01,02,03,04,05,06,07,08,09,10,11,12,1.0,1.0,1.0*30
$GPRMC,012305.553,A,4012.310,N,10510.920,W,000.1,357.3,230925,000.0,W*69
$GPGGA,012715.553,4012.321,N,10510.921,W,1,12,1.0,0.0,M,0.0,M,,*77
$GPGSA,A,3,01,02,03,04,05,06,07,08,09,10,11,12,1.0,1.0,1.0*30
$GPRMC,012715.553,A,4012.321,N,10510.921,W,000.1,354.6,230925,000.0,W*69
$GPGGA,013125.553,4012.331,N,10510.922,W,1,12,1.0,0.0,M,0.0,M,,*71
$GPGSA,A,3,01,02,03,04,05,06,07,08,09,10,11,12,1.0,1.0,1.0*30
$GPRMC,013125.553,A,4012.331,N,10510.922,W,000.3,004.6,230925,000.0,W*6B
$GPGGA,013535.553,4012.349,N,10510.920,W,1,12,1.0,0.0,M,0.0,M,,*79
$GPGSA,A,3,01,02,03,04,05,06,07,08,09,10,11,12,1.0,1.0,1.0*30
$GPRMC,013535.553,A,4012.349,N,10510.920,W,000.2,039.5,230925,000.0,W*6F
$GPGGA,013945.553,4012.357,N,10510.911,W,1,12,1.0,0.0,M,0.0,M,,*7F
$GPGSA,A,3,01,02,03,04,05,06,07,08,09,10,11,12,1.0,1.0,1.0*30
$GPRMC,013945.553,A,4012.357,N,10510.911,W,000.1,060.9,230925,000.0,W*6A
$GPGGA,014355.553,4012.362,N,10510.899,W,1,12,1.0,0.0,M,0.0,M,,*74
$GPGSA,A,3,01,02,03,04,05,06,07,08,09,10,11,12,1.0,1.0,1.0*30
$GPRMC,014355.553,A,4012.362,N,10510.899,W,000.1,072.5,230925,000.0,W*6E
$GPGGA,014805.553,4012.365,N,10510.887,W,1,12,1.0,0.0,M,0.0,M,,*72
$GPGSA,A,3,01,02,03,04,05,06,07,08,09,10,11,12,1.0,1.0,1.0*30
$GPRMC,014805.553,A,4012.365,N,10510.887,W,000.3,004.6,230925,000.0,W*68
$GPGGA,015215.553,4012.383,N,10510.885,W,1,12,1.0,0.0,M,0.0,M,,*72
$GPGSA,A,3,01,02,03,04,05,06,07,08,09,10,11,12,1.0,1.0,1.0*30
$GPRMC,015215.553,A,4012.383,N,10510.885,W,000.2,357.5,230925,000.0,W*6F
$GPGGA,015625.553,4012.395,N,10510.886,W,1,12,1.0,0.0,M,0.0,M,,*71
$GPGSA,A,3,01,02,03,04,05,06,07,08,09,10,11,12,1.0,1.0,1.0*30
$GPRMC,015625.553,A,4012.395,N,10510.886,W,000.2,343.3,230925,000.0,W*6F
$GPGGA,020035.553,4012.409,N,10510.892,W,1,12,1.0,0.0,M,0.0,M,,*77
$GPGSA,A,3,01,02,03,04,05,06,07,08,09,10,11,12,1.0,1.0,1.0*30
$GPRMC,020035.553,A,4012.409,N,10510.892,W,000.2,343.3,230925,000.0,W*69
